[[{"locations":[{"latLng":{"lng":-0.12766,"lat":51.507276},"adminArea4":"London","adminArea5Type":"City","adminArea4Type":"County","adminArea5":"London","street":"","adminArea1":"GB","adminArea3":"England","type":"s","displayLatLng":{"lng":-0.12766,"lat":51.507276},"linkId":0,"postalCode":"","sideOfStreet":"N","dragPoint":false,"adminArea1Type":"Country","geocodeQuality":"CITY","geocodeQualityCode":"A5XAX","mapUrl":"http://open.mapquestapi.com/staticmap/v4/getmap?type=map&size=225,160&pois=purple-1,51.5072759,-0.1276597,0,0|&center=51.5072759,-0.1276597&zoom=12&rand=-2120613358","adminArea3Type":"State"},{"latLng":{"lng":-3.049338,"lat":59.135418},"adminArea4":"Rousay","adminArea5Type":"City","adminArea4Type":"County","adminArea5":"London","street":"","adminArea1":"GB","adminArea3":"Scotland","type":"s","displayLatLng":{"lng":-3.049338,"lat":59.135418},"linkId":0,"postalCode":"","sideOfStreet":"N","dragPoint":false,"adminArea1Type":"Country","geocodeQuality":"CITY","geocodeQualityCode":"A5XAX","mapUrl":"http://open.mapquestapi.com/staticmap/v4/getmap?type=map&size=225,160&pois=purple-2,59.1354177,-3.0493379,0,0|&center=59.1354177,-3.0493379&zoom=12&rand=-2120613358","adminArea3Type":"State"},{"latLng":{"lng":-0.141158,"lat":51.517561},"adminArea4":"London","adminArea5Type":"City","adminArea4Type":"County","adminArea5":"City of Westminster","street":"Mortimer Street","adminArea1":"GB","adminArea3":"England","type":"s","displayLatLng":{"lng":-0.141158,"lat":51.517561},"linkId":0,"postalCode":"W1B 3DG","sideOfStreet":"N","dragPoint":false,"adminArea1Type":"Country","geocodeQuality":"ADDRESS","geocodeQualityCode":"L1XXX","mapUrl":"http://open.mapquestapi.com/staticmap/v4/getmap?type=map&size=225,160&pois=purple-3,51.5175614698645,-0.141158489226213,0,0|&center=51.5175614698645,-0.141158489226213&zoom=15&rand=-2120613358","adminArea3Type":"State"},{"latLng":{"lng":-0.132185,"lat":51.516195},"adminArea4":"London","adminArea5Type":"City","adminArea4Type":"County","adminArea5":"City of Westminster","street":"47 Oxford Street","adminArea1":"GB","adminArea3":"England","type":"s","displayLatLng":{"lng":-0.132185,"lat":51.516195},"linkId":0,"postalCode":"W1D 2DU","sideOfStreet":"N","dragPoint":false,"adminArea1Type":"Country","geocodeQuality":"ADDRESS","geocodeQualityCode":"L1XXX","mapUrl":"http://open.mapquestapi.com/staticmap/v4/getmap?type=map&size=225,160&pois=purple-4,51.5161952,-0.1321849,0,0|&center=51.5161952,-0.1321849&zoom=15&rand=-2120613358","adminArea3Type":"State"},{"latLng":{"lng":-2.978759,"lat":51.350317},"adminArea4":"North Somerset","adminArea5Type":"City","adminArea4Type":"County","adminArea5":"Weston-super-Mare","street":"Waterloo Street","adminArea1":"GB","adminArea3":"England","type":"s","displayLatLng":{"lng":-2.978759,"lat":51.350317},"linkId":0,"postalCode":"","sideOfStreet":"N","dragPoint":false,"adminArea1Type":"Country","geocodeQuality":"ADDRESS","geocodeQualityCode":"L1XXX","mapUrl":"http://open.mapquestapi.com/staticmap/v4/getmap?type=map&size=225,160&pois=purple-5,51.3503173,-2.9787593,0,0|&center=51.3503173,-2.9787593&zoom=15&rand=-2120613358","adminArea3Type":"State"},{"latLng":{"lng":-0.111696,"lat":51.601489},"adminArea4":"London","adminArea5Type":"City","adminArea4Type":"County","adminArea5":"London Borough of Haringey","street":"Canning Crescent","adminArea1":"GB","adminArea3":"England","type":"s","displayLatLng":{"lng":-0.111696,"lat":51.601489},"linkId":0,"postalCode":"N22 8LE","sideOfStreet":"N","dragPoint":false,"adminArea1Type":"Country","geocodeQuality":"ADDRESS","geocodeQualityCode":"L1XXX","mapUrl":"http://open.mapquestapi.com/staticmap/v4/getmap?type=map&size=225,160&pois=purple-6,51.6014893,-0.1116958,0,0|&center=51.6014893,-0.1116958&zoom=15&rand=-2120613358","adminArea3Type":"State"}],"providedLocation":{"location":"London,United Kingdom"}}],[{"locations":[{"latLng":{"lng":3.060066,"lat":36.775348},"adminArea4":"Alger Centre","adminArea5Type":"City","adminArea4Type":"County","adminArea5":"Algiers","street":"","adminArea1":"DZ","adminArea3":"Wilaya Alger","type":"s","displayLatLng":{"lng":3.060066,"lat":36.775348},"linkId":0,"postalCode":"16000","sideOfStreet":"N","dragPoint":false,"adminArea1Type":"Country","geocodeQuality":"ZIP","geocodeQualityCode":"Z1XAX","mapUrl":"http://open.mapquestapi.com/staticmap/v4/getmap?type=map&size=225,160&pois=purple-1,36.775348,3.0600655,0,0|&center=36.775348,3.0600655&zoom=12&rand=1902336466","adminArea3Type":"State"},{"latLng":{"lng":2.999982,"lat":28.000027},"adminArea4":"","adminArea5Type":"City","adminArea4Type":"County","adminArea5":"","street":"","adminArea1":"DZ","adminArea3":"","type":"s","displayLatLng":{"lng":2.999982,"lat":28.000027},"linkId":0,"postalCode":"","sideOfStreet":"N","dragPoint":false,"adminArea1Type":"Country","geocodeQuality":"COUNTRY","geocodeQualityCode":"A1XXX","mapUrl":"http://open.mapquestapi.com/staticmap/v4/getmap?type=map&size=225,160&pois=purple-2,28.0000272,2.9999825,0,0|&center=28.0000272,2.9999825&zoom=2&rand=1902336466","adminArea3Type":"State"}],"providedLocation":{"location":"Algeria,Algiers"}}],[{"locations":[{"latLng":{"lng":69.167494,"lat":34.549523},"adminArea4":"","adminArea5Type":"City","adminArea4Type":"County","adminArea5":"Kabul","street":"Qualla-e-Fatullah Street","adminArea1":"AF","adminArea3":"KƒÅbul","type":"s","displayLatLng":{"lng":69.167494,"lat":34.549523},"linkId":0,"postalCode":"","sideOfStreet":"N","dragPoint":false,"adminArea1Type":"Country","geocodeQuality":"ADDRESS","geocodeQualityCode":"L1XAX","mapUrl":"http://open.mapquestapi.com/staticmap/v4/getmap?type=map&size=225,160&pois=purple-1,34.5495228,69.1674935,0,0|&center=34.5495228,69.1674935&zoom=15&rand=1713809505","adminArea3Type":"State"}],"providedLocation":{"location":"Afghanistan,Kabul"}}]]